{
    "SCHEMA_VERSION": "6.0",
    "DESCRIPTION": "LaukaaInfo Ratkaisulähtöinen profilointi v6. Sisältää graafirakenteen ja capability-kerroksen.",
    "nodes": {
        "group-events-and-celebrations": {
            "type": "group",
            "name": "Häät ja juhlat"
        },
        "group-business-events": {
            "type": "group",
            "name": "Yritystapahtumat"
        },
        "group-funerals-and-memorials": {
            "type": "group",
            "name": "Hautajaiset"
        },
        "group-moving-and-housing": {
            "type": "group",
            "name": "Muutto ja asuminen"
        },
        "group-construction-and-maintenance": {
            "type": "group",
            "name": "Remontti ja ylläpito"
        },
        "group-cottage-services": {
            "type": "group",
            "name": "Mökkipalvelut"
        },
        "group-housing-company-and-contracts": {
            "type": "group",
            "name": "Kiinteistöpalvelut"
        },
        "group-startup-services": {
            "type": "group",
            "name": "Yrityksen perustaminen"
        },
        "group-business-growth": {
            "type": "group",
            "name": "Yrityksen kehittäminen"
        },
        "group-service-partner": {
            "type": "group",
            "name": "Palvelukumppani"
        },
        "group-emergency-services": {
            "type": "group",
            "name": "Päivystävät palvelut"
        },
        "group-wellbeing-and-beauty": {
            "type": "group",
            "name": "Terveys ja hyvinvointi"
        },
        "group-liikunta-ja-vapaaaika": {
            "type": "group",
            "name": "Liikunta ja vapaa-aika"
        },
        "group-accommodation": {
            "type": "group",
            "name": "Majoitus"
        },
        "group-family-and-children": {
            "type": "group",
            "name": "Perhe ja lapset"
        },
        "group-animals": {
            "type": "group",
            "name": "Eläimet ja lemmikit"
        },
        "group-auto-services": {
            "type": "group",
            "name": "Autopalvelut"
        },
        "intent-EVT_WEDDING": {
            "type": "intent",
            "name": "Häät"
        },
        "nodelink-JUHLATILA": {
            "type": "nodelink",
            "name": "JUHLATILA"
        },
        "nodelink-CATERING": {
            "type": "nodelink",
            "name": "CATERING"
        },
        "intent-EVT_BIRTHDAY": {
            "type": "intent",
            "name": "Syntymäpäivät"
        },
        "intent-EVT_BIRTHDAY_KIDS": {
            "type": "intent",
            "name": "Lasten syntymäpäivät"
        },
        "intent-EVT_BIRTHDAY_ADULTS": {
            "type": "intent",
            "name": "Aikuisten syntymäpäivät"
        },
        "intent-EVT_BIRTHDAY_FAMILY": {
            "type": "intent",
            "name": "Sukujuhlat ja merkkipäivät"
        },
        "intent-EVT_CORPORATE": {
            "type": "intent",
            "name": "Yritystapahtumat"
        },
        "intent-EVT_MEMORIAL": {
            "type": "intent",
            "name": "Hautajaiset ja muistotilaisuudet"
        },
        "intent-MEDIA_PHOTO": {
            "type": "intent",
            "name": "Valokuvaus"
        },
        "nodelink-VALOKUVAUS": {
            "type": "nodelink",
            "name": "VALOKUVAUS"
        },
        "intent-MEDIA_VIDEO": {
            "type": "intent",
            "name": "Videokuvaus"
        },
        "nodelink-VIDEOTUOTANTO": {
            "type": "nodelink",
            "name": "VIDEOTUOTANTO"
        },
        "intent-MEDIA_DRONE": {
            "type": "intent",
            "name": "Drone-kuvaus"
        },
        "nodelink-DIGITOINTI": {
            "type": "nodelink",
            "name": "DIGITOINTI"
        },
        "intent-MEDIA_DIGITIZATION": {
            "type": "intent",
            "name": "Digitointi"
        },
        "intent-BIZ_CATERING": {
            "type": "intent",
            "name": "Pitopalvelu"
        },
        "intent-BIZ_FLORIST": {
            "type": "intent",
            "name": "Kukkakauppa ja koristelu"
        },
        "nodelink-KUKAT": {
            "type": "nodelink",
            "name": "KUKAT"
        },
        "intent-BIZ_BRANDING": {
            "type": "intent",
            "name": "Brändäys ja logo"
        },
        "nodelink-BRÄNDÄYS": {
            "type": "nodelink",
            "name": "BRÄNDÄYS"
        },
        "intent-BIZ_MARKETING": {
            "type": "intent",
            "name": "Markkinointi"
        },
        "intent-BIZ_ADVISORY": {
            "type": "intent",
            "name": "Yritysneuvonta"
        },
        "intent-LAW_LEGAL": {
            "type": "intent",
            "name": "Lakipalvelut"
        },
        "intent-BIZ_IT": {
            "type": "intent",
            "name": "IT ja verkkosivut"
        },
        "nodelink-VERKKOSIVUT": {
            "type": "nodelink",
            "name": "VERKKOSIVUT"
        },
        "intent-HOME_MOVING": {
            "type": "intent",
            "name": "Muutto"
        },
        "intent-MOVE_TRANSPORT": {
            "type": "intent",
            "name": "Peräkärry ja kuljetusapu"
        },
        "intent-MOVE_FULL": {
            "type": "intent",
            "name": "Muuttopalvelu (auto + kantajat)"
        },
        "intent-MOVE_STORAGE": {
            "type": "intent",
            "name": "Muuttovarasto ja säilytys"
        },
        "intent-MOVE_CLEANING": {
            "type": "intent",
            "name": "Muuttosiivous"
        },
        "intent-MOVE_ELECTRICITY": {
            "type": "intent",
            "name": "Sähkösopimus ja asennukset"
        },
        "intent-MOVE_RENO": {
            "type": "intent",
            "name": "Pieni pintaremontti (muutto)"
        },
        "intent-HOME_RENOVATION": {
            "type": "intent",
            "name": "Remontti"
        },
        "intent-RENO_BATHROOM": {
            "type": "intent",
            "name": "Kylpyhuoneremontti"
        },
        "intent-RENO_KITCHEN": {
            "type": "intent",
            "name": "Keittiöremontti"
        },
        "intent-RENO_SURFACE": {
            "type": "intent",
            "name": "Pintaremontti"
        },
        "intent-RENO_NEW": {
            "type": "intent",
            "name": "Uudisrakentaminen"
        },
        "intent-HOME_CLEANING": {
            "type": "intent",
            "name": "Siivous"
        },
        "intent-HOME_MAINTENANCE": {
            "type": "intent",
            "name": "Kiinteistöhuolto"
        },
        "nodelink-KIINTEISTÖHUOLTO": {
            "type": "nodelink",
            "name": "KIINTEISTÖHUOLTO"
        },
        "intent-HOME_COTTAGE": {
            "type": "intent",
            "name": "Mökkipalvelut"
        },
        "intent-VENUE_PARTY": {
            "type": "intent",
            "name": "Juhlatila"
        },
        "intent-VENUE_MEETING": {
            "type": "intent",
            "name": "Kokoustila"
        },
        "intent-VENUE_ACCOMMODATION": {
            "type": "intent",
            "name": "Majoitus"
        },
        "nodelink-MAJOITUS": {
            "type": "nodelink",
            "name": "MAJOITUS"
        },
        "intent-WELLBEING_HEALTH": {
            "type": "intent",
            "name": "Terveyspalvelut"
        },
        "intent-WELLBEING_THERAPY": {
            "type": "intent",
            "name": "Terapia ja hyvinvointi"
        },
        "intent-WELLBEING_BEAUTY": {
            "type": "intent",
            "name": "Kauneus ja hoitopalvelut"
        },
        "intent-REC_SWIMMING": {
            "type": "intent",
            "name": "Uinti ja vesiliikunta"
        },
        "intent-REC_RAFTING": {
            "type": "intent",
            "name": "Koskenlasku ja vesiaktiviteetit"
        },
        "intent-REC_GOLF": {
            "type": "intent",
            "name": "Golf"
        },
        "intent-REC_RIDING": {
            "type": "intent",
            "name": "Ratsastus"
        },
        "intent-REC_OUTDOOR": {
            "type": "intent",
            "name": "Luontoretkeily ja ulkoilu"
        },
        "intent-REC_GYM": {
            "type": "intent",
            "name": "Kuntosali ja liikuntakeskus"
        },
        "intent-REC_AMUSEMENT": {
            "type": "intent",
            "name": "Huvipuisto ja perheaktiviteetit"
        },
        "intent-ENT_PROGRAM": {
            "type": "intent",
            "name": "Ohjelmapalvelut"
        },
        "intent-ENT_MUSIC": {
            "type": "intent",
            "name": "Musiikki ja DJ"
        },
        "intent-BIZ_TRANSPORT": {
            "type": "intent",
            "name": "Kuljetus ja taksi"
        },
        "intent-EDU_DAYCARE": {
            "type": "intent",
            "name": "Päivähoito ja koulutus"
        },
        "intent-REC_CHILDREN": {
            "type": "intent",
            "name": "Lasten harrastukset"
        },
        "intent-SHOP_CHILDREN": {
            "type": "intent",
            "name": "Lastentarvikkeet"
        },
        "intent-WELLBEING_FAMILY": {
            "type": "intent",
            "name": "Perheen tuki ja terapia"
        },
        "intent-FAMILY_INFANT": {
            "type": "intent",
            "name": "Vauvat ja taaperot (0-3v)"
        },
        "intent-FAMILY_PRESCHOOL": {
            "type": "intent",
            "name": "Leikki-ikäiset (3-6v)"
        },
        "intent-FAMILY_SCHOOL": {
            "type": "intent",
            "name": "Koululaiset"
        },
        "intent-FAMILY_TEEN": {
            "type": "intent",
            "name": "Nuoret ja teinit"
        },
        "intent-PETS_VET": {
            "type": "intent",
            "name": "Eläinlääkäri"
        },
        "intent-PETS_SUPPLIES": {
            "type": "intent",
            "name": "Lemmikkitarvikkeet"
        },
        "intent-PETS_GROOMING": {
            "type": "intent",
            "name": "Trimmaus ja pesu"
        },
        "intent-PETS_CARE": {
            "type": "intent",
            "name": "Eläinten hoito ja koulutus"
        },
        "intent-PETS_DOG": {
            "type": "intent",
            "name": "Koira"
        },
        "intent-PETS_CAT": {
            "type": "intent",
            "name": "Kissa"
        },
        "intent-PETS_HORSE": {
            "type": "intent",
            "name": "Hevonen"
        },
        "intent-PETS_SMALL": {
            "type": "intent",
            "name": "Pieneläimet"
        },
        "intent-AUTO_REPAIR": {
            "type": "intent",
            "name": "Autokorjaamot"
        },
        "intent-AUTO_TIRES": {
            "type": "intent",
            "name": "Renkaat"
        },
        "intent-AUTO_WASH": {
            "type": "intent",
            "name": "Autopesu ja maalaus"
        },
        "intent-AUTO_HEAVY": {
            "type": "intent",
            "name": "Raskaan kaluston huolto"
        },
        "intent-PROP_MAINTENANCE": {
            "type": "intent",
            "name": "Kiinteistöhuolto"
        },
        "intent-PROP_MANAGEMENT": {
            "type": "intent",
            "name": "Isännöinti"
        },
        "intent-PROP_RENO": {
            "type": "intent",
            "name": "Kiinteistöremontti"
        },
        "intent-PROP_CLEANING": {
            "type": "intent",
            "name": "Kiinteistösiivous"
        },
        "intent-PROP_YARD": {
            "type": "intent",
            "name": "Pihanhoito ja lumityöt"
        },
        "intent-PROP_ACCOUNTING": {
            "type": "intent",
            "name": "Kiinteistökirjanpito"
        },
        "intent-PROP_LEGAL": {
            "type": "intent",
            "name": "Kiinteistöjuridiikka"
        },
        "intent-FUNERAL_ARRANGEMENTS": {
            "type": "intent",
            "name": "Hautajaisjärjestelyt"
        },
        "intent-FUNERAL_MEMORIAL": {
            "type": "intent",
            "name": "Muistotilaisuus"
        },
        "intent-FUNERAL_LEGAL": {
            "type": "intent",
            "name": "Perunkirjoitus ja laki-asiat"
        },
        "intent-FUNERAL_SERVICE": {
            "type": "intent",
            "name": "Hautauspalvelu ja arkut"
        },
        "intent-FUNERAL_STONES": {
            "type": "intent",
            "name": "Hautakivet"
        },
        "intent-FUNERAL_INVENTORY": {
            "type": "intent",
            "name": "Perunkirjoitus"
        },
        "intent-FUNERAL_WILL": {
            "type": "intent",
            "name": "Testamentti"
        },
        "intent-FUNERAL_ADVICE": {
            "type": "intent",
            "name": "Lakiasiain neuvonta"
        },
        "intent-STARTUP_IDEA": {
            "type": "intent",
            "name": "Liikeidea ja suunnittelu"
        },
        "intent-STARTUP_REG": {
            "type": "intent",
            "name": "Rekisteröinti ja hallinto"
        },
        "intent-STARTUP_MARKETING": {
            "type": "intent",
            "name": "Aloittavan yrityksen markkinointi"
        },
        "intent-STARTUP_ADVISORY": {
            "type": "intent",
            "name": "Yritysneuvonta"
        },
        "intent-STARTUP_ACCOUNTING": {
            "type": "intent",
            "name": "Kirjanpito"
        },
        "intent-STARTUP_INSURANCE": {
            "type": "intent",
            "name": "Vakuutukset"
        },
        "intent-STARTUP_LEGAL": {
            "type": "intent",
            "name": "Lakipalvelut"
        },
        "intent-STARTUP_WEB": {
            "type": "intent",
            "name": "Verkkosivut"
        },
        "intent-STARTUP_BRAND": {
            "type": "intent",
            "name": "Logo ja brändäys"
        },
        "intent-STARTUP_ADS": {
            "type": "intent",
            "name": "Mainonta"
        },
        "intent-GROWTH_MARKETING": {
            "type": "intent",
            "name": "Digitaalinen markkinointi"
        },
        "intent-GROWTH_STAFF": {
            "type": "intent",
            "name": "Henkilöstö ja rekrytointi"
        },
        "intent-GROWTH_CONSULT": {
            "type": "intent",
            "name": "Liikkeenjohdon konsultointi"
        },
        "intent-GROWTH_SEO": {
            "type": "intent",
            "name": "Google-mainonta ja SEO"
        },
        "intent-GROWTH_SOCIAL": {
            "type": "intent",
            "name": "Somemarkkinointi"
        },
        "intent-GROWTH_ECOMMERCE": {
            "type": "intent",
            "name": "Verkkokauppa"
        },
        "intent-GROWTH_RECRUIT": {
            "type": "intent",
            "name": "Rekrytointi"
        },
        "intent-GROWTH_TRAINING": {
            "type": "intent",
            "name": "Henkilöstön koulutus"
        },
        "intent-PARTNER_IT": {
            "type": "intent",
            "name": "IT-kumppani"
        },
        "intent-PARTNER_CLEAN": {
            "type": "intent",
            "name": "Siivouskumppani"
        },
        "intent-PARTNER_ACCOUNTING": {
            "type": "intent",
            "name": "Taloushallinnon kumppani"
        },
        "intent-PARTNER_MARKETING": {
            "type": "intent",
            "name": "Markkinointikumppani"
        },
        "intent-EMERGENCY_HVAC": {
            "type": "intent",
            "name": "LVI-päivystys"
        },
        "intent-EMERGENCY_ELECTRIC": {
            "type": "intent",
            "name": "Sähköpäivystys"
        },
        "intent-EMERGENCY_TOWING": {
            "type": "intent",
            "name": "Hinauspalvelu"
        },
        "intent-EMERGENCY_LOCKSMITH": {
            "type": "intent",
            "name": "Lukkoseppä"
        },
        "intent-COTTAGE_CARE": {
            "type": "intent",
            "name": "Mökin valvonta ja huolenpito"
        },
        "intent-COTTAGE_CLEANING": {
            "type": "intent",
            "name": "Mökkisiivous"
        },
        "intent-COTTAGE_FIREWOOD": {
            "type": "intent",
            "name": "Polttopuut"
        },
        "intent-COTTAGE_RENO": {
            "type": "intent",
            "name": "Mökkiremontti"
        },
        "intent-COTTAGE_MAINTENANCE": {
            "type": "intent",
            "name": "Mökin huoltopalvelu"
        },
        "intent-COTTAGE_SWEEP": {
            "type": "intent",
            "name": "Nuohous"
        },
        "intent-COTTAGE_DOCK": {
            "type": "intent",
            "name": "Laiturihuolto"
        },
        "intent-COTTAGE_YARD": {
            "type": "intent",
            "name": "Mökin pihanhoito"
        },
        "intent-COTTAGE_MACHINE": {
            "type": "intent",
            "name": "Pienkonehuolto"
        },
        "intent-RENO_BUILDER": {
            "type": "intent",
            "name": "Rakennus- ja remonttimies"
        },
        "intent-RENO_ELECTRICIAN": {
            "type": "intent",
            "name": "Sähköasentaja"
        },
        "intent-RENO_PLUMBER": {
            "type": "intent",
            "name": "LVI-asentaja (Putkimies)"
        },
        "intent-RENO_PAINTER": {
            "type": "intent",
            "name": "Maalari / Tapetoija"
        },
        "intent-RENO_CARPENTER": {
            "type": "intent",
            "name": "Puuseppä / Kalustekorjaus"
        },
        "intent-RENO_DESIGNER": {
            "type": "intent",
            "name": "Suunnittelija / Arkkitehti"
        },
        "intent-RENO_HARDWARE": {
            "type": "intent",
            "name": "Rautakauppa / Rakennustarvikkeet"
        },
        "intent-RENO_RENTAL": {
            "type": "intent",
            "name": "Koneiden ja laitteiden vuokraus"
        },
        "intent-RENO_INTERIOR": {
            "type": "intent",
            "name": "Sisustustuotteet"
        },
        "intent-WELLBEING_MASSAGE": {
            "type": "intent",
            "name": "Hieronta ja kehonhuolto"
        },
        "intent-WELLBEING_CARE": {
            "type": "intent",
            "name": "Hoiva ja kotihoito"
        },
        "company-278": {
            "type": "company",
            "name": "Laukaan Satamakahvila (Laukaan satama)",
            "category": "Ruokailu",
            "package": "perus",
            "lat": 62.411087,
            "lon": 25.961,
            "address": "Satamatie 3, 41340 Laukaa"
        },
        "region-laukaa-satama": {
            "type": "area",
            "name": "Laukaa satama"
        },
        "nodelink-LAUKAA": {
            "type": "nodelink",
            "name": "LAUKAA"
        },
        "nodelink-SATAMA": {
            "type": "nodelink",
            "name": "SATAMA"
        },
        "nodelink-KAHVILA": {
            "type": "nodelink",
            "name": "KAHVILA"
        },
        "nodelink-RAVINTOLA": {
            "type": "nodelink",
            "name": "RAVINTOLA"
        },
        "nodelink-VENEILY": {
            "type": "nodelink",
            "name": "VENEILY"
        },
        "nodelink-LIIKUNTA": {
            "type": "nodelink",
            "name": "LIIKUNTA"
        },
        "nodelink-SAUNA": {
            "type": "nodelink",
            "name": "SAUNA"
        },
        "company-275": {
            "type": "company",
            "name": "Tyyni Hoiva Suomi Oy",
            "category": "Hyvinvointi ja terveys",
            "package": "perus",
            "lat": 62.7503773,
            "lon": 26.5641627,
            "address": "Koipilahdentie 210, Rautalampi"
        },
        "group-hyvinvointi-ja-kauneus": {
            "type": "group",
            "name": "hyvinvointi-ja-kauneus"
        },
        "group-ikäihmisten-palvelut": {
            "type": "group",
            "name": "ikäihmisten-palvelut"
        },
        "group-omaishoitajien-tuki": {
            "type": "group",
            "name": "omaishoitajien-tuki"
        },
        "group-kotipalvelut": {
            "type": "group",
            "name": "kotipalvelut"
        },
        "group-arjen-apu": {
            "type": "group",
            "name": "arjen-apu"
        },
        "region-keski-suomi": {
            "type": "area",
            "name": "Keski-Suomi"
        },
        "region-pohjois-savo": {
            "type": "area",
            "name": "Pohjois-Savo"
        },
        "nodelink-HYVINVOINTI": {
            "type": "nodelink",
            "name": "HYVINVOINTI"
        },
        "nodelink-KOTIPALVELUT": {
            "type": "nodelink",
            "name": "KOTIPALVELUT"
        },
        "nodelink-IKAIHMISET": {
            "type": "nodelink",
            "name": "IKAIHMISET"
        },
        "nodelink-OMAISHOITO": {
            "type": "nodelink",
            "name": "OMAISHOITO"
        },
        "company-274": {
            "type": "company",
            "name": "Kotihoito A-M Huttunen",
            "category": "Hyvinvointi ja terveys",
            "package": "perus",
            "lat": 62.3719,
            "lon": 25.9124,
            "address": "Marjarinne 20, Vihtavuori"
        },
        "company-273": {
            "type": "company",
            "name": "Onnellinen Studio",
            "category": "Palvelut",
            "package": "perus",
            "lat": 62.273,
            "lon": 26.22,
            "address": "Vannastie 14, 41400 Lievestuore, Suomi"
        },
        "region-laukaa": {
            "type": "area",
            "name": "Laukaa"
        },
        "company-272": {
            "type": "company",
            "name": "Rengaskanava Oy",
            "category": "Auto ja kuljetus",
            "package": "perus",
            "lat": 62.4229172,
            "lon": 25.9161713,
            "address": "Rokkamäentie 1, laukaa"
        },
        "company-271": {
            "type": "company",
            "name": "Fenno optiikka",
            "category": "Kaupat ja ostokset",
            "package": "perus",
            "lat": 62.4145402,
            "lon": 25.954354,
            "address": "Laukaantie 22-24, 41340 Laukaa"
        },
        "company-270": {
            "type": "company",
            "name": "Tertan kahvila- ja puoti",
            "category": "Kaupat ja ostokset",
            "package": "perus",
            "lat": 62.3421842,
            "lon": 25.9688631,
            "address": "Antinniementie 1, 41330 Laukaa"
        },
        "group-juhlat-ja-merkkipäivät": {
            "type": "group",
            "name": "juhlat-ja-merkkipäivät"
        },
        "group-häät": {
            "type": "group",
            "name": "häät"
        },
        "group-yritysjuhlat": {
            "type": "group",
            "name": "yritysjuhlat"
        },
        "group-kokoukset": {
            "type": "group",
            "name": "kokoukset"
        },
        "group-pitopalvelu": {
            "type": "group",
            "name": "pitopalvelu"
        },
        "group-kahvila": {
            "type": "group",
            "name": "kahvila"
        },
        "region-vihtavuori": {
            "type": "area",
            "name": "Vihtavuori"
        },
        "company-269": {
            "type": "company",
            "name": "Terveys- ja hyvinvointipalvelu Riina Raitio",
            "category": "Hyvinvointi ja terveys",
            "package": "perus",
            "lat": 62.2604021,
            "lon": 26.1947594,
            "address": "Huminankuja 2, 41400 Lievestuore"
        },
        "region-lievestuore": {
            "type": "area",
            "name": "Lievestuore"
        },
        "company-268": {
            "type": "company",
            "name": "Jyväs Pakari Lievestuore",
            "category": "Ruokailu",
            "package": "perus",
            "lat": 62.2530703,
            "lon": 26.2089623,
            "address": "Lievestuoreen Liisantie 15, 41400 Lievestuore"
        },
        "group-juhlat": {
            "type": "group",
            "name": "juhlat"
        },
        "group-muistotilaisuus": {
            "type": "group",
            "name": "muistotilaisuus"
        },
        "company-2": {
            "type": "company",
            "name": "Mediazoo",
            "category": "Palvelut",
            "package": "perus",
            "lat": 62.270133,
            "lon": 26.223957,
            "address": "Salmelantie, 41400 Lievestuore"
        },
        "group-yrityksen-kehittäminen": {
            "type": "group",
            "name": "yrityksen-kehittäminen"
        },
        "group-hautajaiset": {
            "type": "group",
            "name": "hautajaiset"
        },
        "group-muutto": {
            "type": "group",
            "name": "muutto"
        },
        "group-yrityksen-perustaminen": {
            "type": "group",
            "name": "yrityksen-perustaminen"
        },
        "region-jyväskylä": {
            "type": "area",
            "name": "Jyväskylä"
        },
        "company-3": {
            "type": "company",
            "name": "Eevan fysioterapia",
            "category": "Hyvinvointi ja terveys",
            "package": "perus",
            "lat": 62.261255,
            "lon": 26.195788,
            "address": "Liepeentie 11, 41400 Lievestuore"
        },
        "company-6": {
            "type": "company",
            "name": "Fysioterapia Ehyt",
            "category": "Hyvinvointi ja terveys",
            "package": "perus",
            "lat": 62.324483,
            "lon": 25.835142,
            "address": "Ilvestie 1, 41310 Laukaa"
        },
        "company-7": {
            "type": "company",
            "name": "Fysioterapia Oiva Ky",
            "category": "Hyvinvointi ja terveys",
            "package": "perus",
            "lat": 62.261,
            "lon": 26.196,
            "address": "Liepeentie 11, 41400 Laukaa"
        },
        "company-8": {
            "type": "company",
            "name": "Fysioterapiapalvelu Hannele Kerkelä",
            "category": "Hyvinvointi ja terveys",
            "package": "perus",
            "lat": 62.4107,
            "lon": 25.91018,
            "address": "Arwidssonintie, 41340 Laukaa"
        },
        "company-9": {
            "type": "company",
            "name": "Hermoratahieroja Hilkka Jokitalo",
            "category": "Hyvinvointi ja terveys",
            "package": "perus",
            "lat": 62.313839,
            "lon": 25.842369,
            "address": "Lehtorinne 2 as 2, 41310 Laukaa"
        },
        "company-10": {
            "type": "company",
            "name": "Hieroja Antero Kumpu",
            "category": "Hyvinvointi ja terveys",
            "package": "perus",
            "lat": 62.412937,
            "lon": 25.952818,
            "address": "Keskustie 3, 41330 Laukaa"
        },
        "company-11": {
            "type": "company",
            "name": "Hierontapalvelu Soul&Body",
            "category": "Hyvinvointi ja terveys",
            "package": "perus",
            "lat": 62.348509,
            "lon": 25.935989,
            "address": "Lääsäntie 65, 41330 Laukaa"
        },
        "company-12": {
            "type": "company",
            "name": "Hierontapalvelut Anni Lappalainen",
            "category": "Hyvinvointi ja terveys",
            "package": "perus",
            "lat": 62.26057,
            "lon": 26.195382,
            "address": "Liepeentie 4, 41400 Lievestuore"
        },
        "company-13": {
            "type": "company",
            "name": "Iloinen Noita Oy",
            "category": "Kaupat ja ostokset",
            "package": "perus",
            "lat": 62.411217,
            "lon": 25.908613,
            "address": "Leipäpohjantie 45, 41350 Laukaa"
        },
        "company-15": {
            "type": "company",
            "name": "Katja Säpsä",
            "category": "Hyvinvointi ja terveys",
            "package": "perus",
            "lat": 62.330451,
            "lon": 25.836878,
            "address": "Mäntyrinne 1 , 41310 Laukaa"
        },
        "company-16": {
            "type": "company",
            "name": "Hieroja Anni Piilonen",
            "category": "Hyvinvointi ja terveys",
            "package": "perus",
            "lat": 62.452716,
            "lon": 25.939241,
            "address": "Oitinlammentie 31, 41370 Laukaa"
        },
        "company-17": {
            "type": "company",
            "name": "Laukaan Apteekki",
            "category": "Kaupat ja ostokset",
            "package": "perus",
            "lat": 62.413063,
            "lon": 25.947868,
            "address": "Vuokaari 2, 41340 Laukaa"
        },
        "company-18": {
            "type": "company",
            "name": "Laukaan Toimintaterapia",
            "category": "Hyvinvointi ja terveys",
            "package": "perus",
            "lat": 62.3752849,
            "lon": 25.9204993,
            "address": "Brittilänranta 16, 41330 Laukaa"
        },
        "company-19": {
            "type": "company",
            "name": "Lievestuoreen Apteekki",
            "category": "Kaupat ja ostokset",
            "package": "perus",
            "lat": 62.261279,
            "lon": 26.199196,
            "address": "Liepeentie 8, 41400 Laukaa"
        },
        "company-20": {
            "type": "company",
            "name": "Liikkeen Viisaus",
            "category": "Hyvinvointi ja terveys",
            "package": "perus",
            "lat": 62.3750971,
            "lon": 25.9220388,
            "address": "Brittilänranta 20, 41330 Laukaa"
        },
        "company-23": {
            "type": "company",
            "name": "OneFit",
            "category": "Hyvinvointi ja terveys",
            "package": "perus",
            "lat": 62.394145,
            "lon": 25.941988,
            "address": "Muonamiehenkuja 13, 41340 Laukaa"
        },
        "company-27": {
            "type": "company",
            "name": "Ruskan Riemut Oy",
            "category": "Hyvinvointi ja terveys",
            "package": "perus",
            "lat": 62.504019,
            "lon": 25.873488,
            "address": "Salmirannankuja 5, 41370 Laukaa"
        },
        "group-hyvinvointi": {
            "type": "group",
            "name": "hyvinvointi"
        },
        "group-tyhy-päivät": {
            "type": "group",
            "name": "tyhy-päivät"
        },
        "group-vapaa-aika": {
            "type": "group",
            "name": "vapaa-aika"
        },
        "group-elämykset": {
            "type": "group",
            "name": "elämykset"
        },
        "region-kuusa": {
            "type": "area",
            "name": "Kuusa"
        },
        "nodelink-KUUSA": {
            "type": "nodelink",
            "name": "KUUSA"
        },
        "nodelink-HUVIT": {
            "type": "nodelink",
            "name": "HUVIT"
        },
        "nodelink-ELÄMYKSET": {
            "type": "nodelink",
            "name": "ELÄMYKSET"
        },
        "nodelink-ELÄIMET": {
            "type": "nodelink",
            "name": "ELÄIMET"
        },
        "company-28": {
            "type": "company",
            "name": "Sanna Niinikoski",
            "category": "Hyvinvointi ja terveys",
            "package": "perus",
            "lat": 62.374734,
            "lon": 25.922104,
            "address": "Rysäkuja 3, Laukaa"
        },
        "company-29": {
            "type": "company",
            "name": "Senilix Os et Musculus",
            "category": "Hyvinvointi ja terveys",
            "package": "perus",
            "lat": 62.409956,
            "lon": 25.950166,
            "address": "Kantolantie 10, 41340 Laukaa"
        },
        "group-hieronta": {
            "type": "group",
            "name": "hieronta"
        },
        "group-urheiluhieronta": {
            "type": "group",
            "name": "urheiluhieronta"
        },
        "company-30": {
            "type": "company",
            "name": "Suomen Terveystalo Oy",
            "category": "Hyvinvointi ja terveys",
            "package": "perus",
            "lat": 62.372252,
            "lon": 25.874265,
            "address": "Ruutitehtaantie 80, 41330 Laukaa"
        },
        "company-32": {
            "type": "company",
            "name": "Laukaan hieronta ja kauneussalonki",
            "category": "Hyvinvointi ja terveys",
            "package": "perus",
            "lat": 62.414123,
            "lon": 25.956217,
            "address": "Laukaantie 18, laukaa"
        },
        "company-33": {
            "type": "company",
            "name": "Hyvinvointipalvelu Vire",
            "category": "Hyvinvointi ja terveys",
            "package": "perus",
            "lat": 62.26057,
            "lon": 26.195382,
            "address": "Liepeentie 4, 41400 Lievestuore"
        },
        "company-35": {
            "type": "company",
            "name": "Tmi Tuula Laiho",
            "category": "Hyvinvointi ja terveys",
            "package": "perus",
            "lat": 62.412412,
            "lon": 25.958548,
            "address": "Laukaantie 12, 41340 Laukaa"
        },
        "company-36": {
            "type": "company",
            "name": "Tmi Heini Riekkinen",
            "category": "Hyvinvointi ja terveys",
            "package": "perus",
            "lat": 62.273622,
            "lon": 26.223787,
            "address": "Helvinkuja 3, 41400 Laukaa"
        },
        "company-37": {
            "type": "company",
            "name": "Arskan Autopalvelu",
            "category": "Auto ja kuljetus",
            "package": "perus",
            "lat": 62.308658,
            "lon": 25.828992,
            "address": "Sepänpolku 2, 41310 Leppävesi"
        },
        "region-leppävesi": {
            "type": "area",
            "name": "Leppävesi"
        },
        "company-38": {
            "type": "company",
            "name": "Asennuspalvelu J.Karvinen Oy",
            "category": "Auto ja kuljetus",
            "package": "perus",
            "lat": 62.420774,
            "lon": 25.914737,
            "address": "Rokkakankaantie 10, Laukaa"
        },
        "company-39": {
            "type": "company",
            "name": "Autokorjaamo Heikki Valkonen (AD Autokorjaamo)",
            "category": "Auto ja kuljetus",
            "package": "perus",
            "lat": 62.420022,
            "lon": 25.915509,
            "address": "Rokkakankaantie , Laukaa"
        },
        "company-40": {
            "type": "company",
            "name": "Autokorjaamo J Ala-Könni Oy",
            "category": "Auto ja kuljetus",
            "package": "perus",
            "lat": 62.310322,
            "lon": 25.837418,
            "address": "mestarintie 10, 41310 Leppävesi"
        },
        "company-41": {
            "type": "company",
            "name": "Autokorjaamo Kari-Huolto Leppävesi",
            "category": "Auto ja kuljetus",
            "package": "perus",
            "lat": 62.308393,
            "lon": 25.828803,
            "address": "Sepänpolku, Leppävesi"
        },
        "company-42": {
            "type": "company",
            "name": "Automaalaamo Autokori Oy",
            "category": "Auto ja kuljetus",
            "package": "perus",
            "lat": 62.312156,
            "lon": 25.832979,
            "address": "Sepänrinne 2, 41320 Leppävesi"
        },
        "company-45": {
            "type": "company",
            "name": "GTI Car Center Oy",
            "category": "Auto ja kuljetus",
            "package": "perus",
            "lat": 62.306717,
            "lon": 25.830774,
            "address": "Leppävedenkatu 11, 41310 Leppävesi"
        },
        "company-47": {
            "type": "company",
            "name": "Gyvers Garage",
            "category": "Auto ja kuljetus",
            "package": "perus",
            "lat": 62.315175,
            "lon": 25.84471,
            "address": "Kumpurinne 7, 41310 Leppävesi"
        },
        "company-48": {
            "type": "company",
            "name": "Hytösen korjaamo",
            "category": "Auto ja kuljetus",
            "package": "perus",
            "lat": 62.331933,
            "lon": 25.85097,
            "address": "Eerolantie 20 41310 Leppävesi"
        },
        "company-49": {
            "type": "company",
            "name": "Jannen Autokorjaus",
            "category": "Auto ja kuljetus",
            "package": "perus",
            "lat": 62.308658,
            "lon": 25.828992,
            "address": "Sepänpolku 2, 41310 Leppävesi"
        },
        "company-50": {
            "type": "company",
            "name": "Jeltek",
            "category": "Auto ja kuljetus",
            "package": "perus",
            "lat": 62.374045,
            "lon": 25.904668,
            "address": "Suolehdontie 5 41330 Vihtavuori"
        },
        "company-51": {
            "type": "company",
            "name": "JKL Asennus Oy",
            "category": "Auto ja kuljetus",
            "package": "perus",
            "lat": 62.358643,
            "lon": 25.878944,
            "address": "Sikomäentie 28, 41330 Vihtavuori"
        },
        "company-53": {
            "type": "company",
            "name": "K&K Peni Oy",
            "category": "Palvelut",
            "package": "perus",
            "lat": 62.40282,
            "lon": 25.946777,
            "address": "Lahdenkuja 4,. 41340 Laukaa"
        },
        "company-54": {
            "type": "company",
            "name": "Konehuolto Myyryläinen Oy",
            "category": "Auto ja kuljetus",
            "package": "perus",
            "lat": 62.256325,
            "lon": 26.179575,
            "address": "Pirtinmutka 1, 41400 Laukaa Lievestuore"
        },
        "company-55": {
            "type": "company",
            "name": "LeiskarT",
            "category": "Auto ja kuljetus",
            "package": "perus",
            "lat": 62.420943,
            "lon": 25.949759,
            "address": "Keihästie 3 , Laukaa"
        },
        "company-56": {
            "type": "company",
            "name": "LRA-Raskashuolto Oy",
            "category": "Auto ja kuljetus",
            "package": "perus",
            "lat": 62.453063,
            "lon": 25.815663,
            "address": "Valkolantie 432, 41360 Valkola"
        },
        "company-57": {
            "type": "company",
            "name": "Möykky Oy",
            "category": "Auto ja kuljetus",
            "package": "perus",
            "lat": 62.381996,
            "lon": 26.069474,
            "address": "Simunankoskentie 5 as 1 41325 Laukkavirta"
        },
        "company-58": {
            "type": "company",
            "name": "Pajakulma Oy",
            "category": "Auto ja kuljetus",
            "package": "perus",
            "lat": 62.304463,
            "lon": 25.823967,
            "address": "Rajamäentie 5, 41310 Leppävesi"
        },
        "group-taloyhtiöpalvelut": {
            "type": "group",
            "name": "taloyhtiöpalvelut"
        },
        "company-59": {
            "type": "company",
            "name": "Parkos Oy",
            "category": "Rakentaminen ja remontointi",
            "package": "perus",
            "lat": 62.366554,
            "lon": 25.91313,
            "address": "Ketunkuja 1 41330 Vihtavuori"
        },
        "company-60": {
            "type": "company",
            "name": "Printsport Oy",
            "category": "Auto ja kuljetus",
            "package": "perus",
            "lat": 62.262311,
            "lon": 26.205728,
            "address": "Hohontie, Lievestuore"
        },
        "company-61": {
            "type": "company",
            "name": "RJJ - Huolto & Pesu Oy",
            "category": "Auto ja kuljetus",
            "package": "perus",
            "lat": 62.310851,
            "lon": 25.837865,
            "address": "Mestarintie 4, 41310 Leppävesi"
        },
        "company-62": {
            "type": "company",
            "name": "Scania Suomi Oy",
            "category": "Auto ja kuljetus",
            "package": "perus",
            "lat": 62.310083,
            "lon": 25.844583,
            "address": "Hallaperäntie 8, 41310 Leppävesi"
        },
        "company-63": {
            "type": "company",
            "name": "Sepän Automaalaus",
            "category": "Auto ja kuljetus",
            "package": "perus",
            "lat": 62.308658,
            "lon": 25.828992,
            "address": "Sepänpolku 2, 41310 Leppävesi"
        },
        "company-64": {
            "type": "company",
            "name": "Service Palonen",
            "category": "Auto ja kuljetus",
            "package": "perus",
            "lat": 62.370075,
            "lon": 25.966047,
            "address": "Kuhankoskentie 34, 41340 Laukaa"
        },
        "company-66": {
            "type": "company",
            "name": "SK Raskashuolto",
            "category": "Auto ja kuljetus",
            "package": "perus",
            "lat": 62.34745,
            "lon": 25.922152,
            "address": "Järvikalliontie 11, 41330 Vihtasilta"
        },
        "company-67": {
            "type": "company",
            "name": "T:mi Ari Hokkanen",
            "category": "Auto ja kuljetus",
            "package": "perus",
            "lat": 62.323959,
            "lon": 26.197631,
            "address": "Saarilammintie, 41400 Lievestuore"
        },
        "company-68": {
            "type": "company",
            "name": "T:mi Autopalvelu Timo Lehtonen",
            "category": "Auto ja kuljetus",
            "package": "perus",
            "lat": 62.24585,
            "lon": 26.13574,
            "address": "Ruuhimäentie 1, Lievestuore"
        },
        "company-69": {
            "type": "company",
            "name": "T:mi Autopesu Hietex",
            "category": "Auto ja kuljetus",
            "package": "perus",
            "lat": 62.308459,
            "lon": 25.828069,
            "address": "Sepänpolku 3, 41310 LEPPÄVESI"
        },
        "company-70": {
            "type": "company",
            "name": "T:mi Huolto-Kaksikko S. Roiha",
            "category": "Auto ja kuljetus",
            "package": "perus",
            "lat": 62.308459,
            "lon": 25.828069,
            "address": "Sepänpolku 3, 41310 LEPPÄVESI"
        },
        "company-71": {
            "type": "company",
            "name": "T:mi Jarkon korjaus ja apu",
            "category": "Auto ja kuljetus",
            "package": "perus",
            "lat": 62.371646,
            "lon": 25.90886,
            "address": "Vehmasahontie 27, 41330 Vihtavuori"
        },
        "company-72": {
            "type": "company",
            "name": "T:mi Jarno Räty",
            "category": "Auto ja kuljetus",
            "package": "perus",
            "lat": 62.347911,
            "lon": 25.928725,
            "address": "Järvilinnantie 10, 41330 Vihtasilta"
        },
        "company-73": {
            "type": "company",
            "name": "T:mi Jukka Häkkinen",
            "category": "Auto ja kuljetus",
            "package": "perus",
            "lat": 62.317926,
            "lon": 25.873315,
            "address": "Raikkolantie 45, 41310 Leppävesi"
        },
        "company-74": {
            "type": "company",
            "name": "T:mi Monitoimi Kiiski",
            "category": "Auto ja kuljetus",
            "package": "perus",
            "lat": 62.362755,
            "lon": 25.915511,
            "address": "kuhalantie 5, 41330 Vihtavuori"
        },
        "group-tapahtumien-järjestäminen": {
            "type": "group",
            "name": "tapahtumien-järjestäminen"
        },
        "group-kokouspalvelut": {
            "type": "group",
            "name": "kokouspalvelut"
        },
        "group-hyvinvointipalvelut": {
            "type": "group",
            "name": "hyvinvointipalvelut"
        },
        "group-yritystapahtumat": {
            "type": "group",
            "name": "yritystapahtumat"
        },
        "nodelink-TAPAHTUMAT": {
            "type": "nodelink",
            "name": "TAPAHTUMAT"
        },
        "nodelink-KOKOUS": {
            "type": "nodelink",
            "name": "KOKOUS"
        },
        "company-75": {
            "type": "company",
            "name": "T:mi T. Lauttaanaho",
            "category": "Auto ja kuljetus",
            "package": "perus",
            "lat": 62.397853,
            "lon": 25.91613,
            "address": "Kalliomäentie 108 41340 Laukaa"
        },
        "company-76": {
            "type": "company",
            "name": "T:mi Tero Hytönen",
            "category": "Auto ja kuljetus",
            "package": "perus",
            "lat": 62.25538627,
            "lon": 26.27307389,
            "address": "Tahkomäentie 33, 41400 Lievestuore"
        },
        "company-77": {
            "type": "company",
            "name": "T:mi Tommi Kauppinen",
            "category": "Auto ja kuljetus",
            "package": "perus",
            "lat": 62.23785039,
            "lon": 26.23955145,
            "address": "lapinjärventie 376, 41400 Lievestuore"
        },
        "company-78": {
            "type": "company",
            "name": "Tecvest Oy",
            "category": "Auto ja kuljetus",
            "package": "perus",
            "lat": 62.402968,
            "lon": 25.926898,
            "address": "Petäälammentie 8, 41340 Laukaa"
        },
        "company-79": {
            "type": "company",
            "name": "TH-Pesu Oy",
            "category": "Auto ja kuljetus",
            "package": "perus",
            "lat": 62.405814,
            "lon": 25.938492,
            "address": "Raunilantie, 41340 Laukaa"
        },
        "company-80": {
            "type": "company",
            "name": "Wakpal Oy",
            "category": "Auto ja kuljetus",
            "package": "perus",
            "lat": 62.308601,
            "lon": 25.827597,
            "address": "Sepänpolku 5, 41310 Leppävesi"
        },
        "company-81": {
            "type": "company",
            "name": "Vuonteen Kolaripaja",
            "category": "Auto ja kuljetus",
            "package": "perus",
            "lat": 62.332432,
            "lon": 25.957084,
            "address": "Saviontie 361, 41330 Vihtavuori"
        },
        "company-82": {
            "type": "company",
            "name": "R-kioski - Kirsi Sinijärvi Oy",
            "category": "Kaupat ja ostokset",
            "package": "perus",
            "lat": 62.41454,
            "lon": 25.954354,
            "address": "Laukaantie 22, 41340 Laukaa"
        },
        "company-83": {
            "type": "company",
            "name": "Alko Oy (Alko)",
            "category": "Elintarvikkeet",
            "package": "perus",
            "lat": 62.414238,
            "lon": 25.94795,
            "address": "Vuojärventie 1, 41340 Laukaa"
        },
        "company-84": {
            "type": "company",
            "name": "Espedet Oy (K-Supermarket)",
            "category": "Elintarvikkeet",
            "package": "perus",
            "lat": 62.413063,
            "lon": 25.947868,
            "address": "Vuokaari 2, 41340 Laukaa"
        },
        "company-86": {
            "type": "company",
            "name": "J. Kaurola Avoin yhtiö (K-MARKET TIITUS)",
            "category": "Elintarvikkeet",
            "package": "perus",
            "lat": 62.321887,
            "lon": 25.842783,
            "address": "Tiituspohjantie 36, 41310 Laukaa"
        },
        "company-87": {
            "type": "company",
            "name": "Kalaliike Pentti Rossi",
            "category": "Elintarvikkeet",
            "package": "perus",
            "lat": 62.51578881,
            "lon": 26.06896776,
            "address": "Särkeäläntie 122, 41390 Äijälä"
        },
        "company-88": {
            "type": "company",
            "name": "Keliapakari",
            "category": "Elintarvikkeet",
            "package": "perus",
            "lat": 62.513841,
            "lon": 26.034776,
            "address": "Jokipurontie 5, 41390 Laukaa"
        },
        "company-89": {
            "type": "company",
            "name": "Keski-Suomen Lihavarras Oy",
            "category": "Elintarvikkeet",
            "package": "perus",
            "lat": 62.259919,
            "lon": 26.210033,
            "address": "Simontie 1, 41400 Lievestuore"
        },
        "company-90": {
            "type": "company",
            "name": "Laukaan Säästö-Market Oy",
            "category": "Kaupat ja ostokset",
            "package": "perus",
            "lat": 62.24585,
            "lon": 26.13574,
            "address": "Ruuhimäentie 1, 41400 Laukaa"
        },
        "company-91": {
            "type": "company",
            "name": "Laukaan yrityspalvelut",
            "category": "Palvelut",
            "package": "perus",
            "lat": 62.4132066,
            "lon": 25.959155,
            "address": "Laukaantie 14, 41341 Laukaa"
        },
        "group-yritysneuvonta": {
            "type": "group",
            "name": "yritysneuvonta"
        },
        "group-rahoitusneuvonta": {
            "type": "group",
            "name": "rahoitusneuvonta"
        },
        "group-hankeneuvonta": {
            "type": "group",
            "name": "hankeneuvonta"
        },
        "nodelink-YRITYSPALVELUT": {
            "type": "nodelink",
            "name": "YRITYSPALVELUT"
        },
        "nodelink-NEUVONTA": {
            "type": "nodelink",
            "name": "NEUVONTA"
        },
        "company-92": {
            "type": "company",
            "name": "Lidi Suomi Ky",
            "category": "Elintarvikkeet",
            "package": "perus",
            "lat": 62.41485,
            "lon": 25.945942,
            "address": "Vuojärventie 4, 41340 Laukaa"
        },
        "company-93": {
            "type": "company",
            "name": "Lähipalvelu ja Grilli Jokis",
            "category": "Ruokailu",
            "package": "perus",
            "lat": 62.423676,
            "lon": 25.956371,
            "address": "Vanhansillantie 3, 41340 Laukaa"
        },
        "company-94": {
            "type": "company",
            "name": "Osuuskauppa Keskimaa (S-Market)",
            "category": "Elintarvikkeet",
            "package": "perus",
            "lat": 62.262105,
            "lon": 26.200473,
            "address": "Liepeentie 17, 41400 Lievestuore"
        },
        "group-yrityksen kehittäminen": {
            "type": "group",
            "name": "yrityksen kehittäminen"
        },
        "company-95": {
            "type": "company",
            "name": "P. Helppi Ky (K-MARKET VIHTORI)",
            "category": "Elintarvikkeet",
            "package": "perus",
            "lat": 62.366741,
            "lon": 25.901552,
            "address": "Haavistontie 2, 41330 Laukaa"
        },
        "company-96": {
            "type": "company",
            "name": "Raudaskala",
            "category": "Elintarvikkeet",
            "package": "perus",
            "lat": 62.393386,
            "lon": 25.942106,
            "address": "Muonamiehenkuja 19, 41340 Laukaa"
        },
        "company-97": {
            "type": "company",
            "name": "T:mi Juhani P.E. Lampinen",
            "category": "Elintarvikkeet",
            "package": "perus",
            "lat": 62.269722,
            "lon": 26.193466,
            "address": "Majasaarentie 5 A, 41400 Laukaa"
        },
        "company-98": {
            "type": "company",
            "name": "T:mi Tökös",
            "category": "Elintarvikkeet",
            "package": "perus",
            "lat": 62.369927,
            "lon": 25.892968,
            "address": "Hermannintie, 41330 Laukaa"
        },
        "company-99": {
            "type": "company",
            "name": "Tmi Riihipellon Leipäpuu Kotileipomo",
            "category": "Elintarvikkeet",
            "package": "perus",
            "lat": 62.2897,
            "lon": 26.099202,
            "address": "Lummelahdentie 109, 41400 Laukaa"
        },
        "group-kahvila-ja-leipomopalvelut": {
            "type": "group",
            "name": "kahvila-ja-leipomopalvelut"
        },
        "group-tilausleivonnaiset": {
            "type": "group",
            "name": "tilausleivonnaiset"
        },
        "group-lahjatuotteet": {
            "type": "group",
            "name": "lahjatuotteet"
        },
        "nodelink-LIEVESTUORE": {
            "type": "nodelink",
            "name": "LIEVESTUORE"
        },
        "nodelink-PITOPALVELU": {
            "type": "nodelink",
            "name": "PITOPALVELU"
        },
        "company-100": {
            "type": "company",
            "name": "Tokmanni Oy",
            "category": "Kaupat ja ostokset",
            "package": "perus",
            "lat": 62.413665,
            "lon": 25.948274,
            "address": "Vuojärven puistotie 11, 41340 Laukaa"
        },
        "company-101": {
            "type": "company",
            "name": "AtSound Matti Laurila",
            "category": "Palvelut",
            "package": "perus",
            "lat": 62.329685,
            "lon": 25.830547,
            "address": "Kuusirinne 5, 41310 Laukaa"
        },
        "group-tapahtumatekniikka": {
            "type": "group",
            "name": "tapahtumatekniikka"
        },
        "group-aanentoisto-palvelut": {
            "type": "group",
            "name": "aanentoisto-palvelut"
        },
        "group-dj-palvelut": {
            "type": "group",
            "name": "dj-palvelut"
        },
        "group-ohjelmapalvelut": {
            "type": "group",
            "name": "ohjelmapalvelut"
        },
        "company-102": {
            "type": "company",
            "name": "Bellingham Oy (Nokkakiven huvipuisto)",
            "category": "Palvelut",
            "package": "perus",
            "lat": 62.24553,
            "lon": 26.139236,
            "address": "Ruuhimäentie 3, 41400 Laukaa"
        },
        "group-perhe-huvipuisto": {
            "type": "group",
            "name": "perhe-huvipuisto"
        },
        "group-lasten-viihde": {
            "type": "group",
            "name": "lasten-viihde"
        },
        "group-matkailu": {
            "type": "group",
            "name": "matkailu"
        },
        "nodelink-MATKAILU": {
            "type": "nodelink",
            "name": "MATKAILU"
        },
        "nodelink-LAPSET": {
            "type": "nodelink",
            "name": "LAPSET"
        },
        "company-103": {
            "type": "company",
            "name": "Cafe Anne-Maria Oy (Ravintola Rosanne)",
            "category": "Ruokailu",
            "package": "perus",
            "lat": 62.41454,
            "lon": 25.954354,
            "address": "Laukaantie 22, 41340 Laukaa"
        },
        "group-lounas": {
            "type": "group",
            "name": "lounas"
        },
        "group-ravintola": {
            "type": "group",
            "name": "ravintola"
        },
        "group-catering": {
            "type": "group",
            "name": "catering"
        },
        "company-104": {
            "type": "company",
            "name": "Catering KatinCa",
            "category": "Palvelut",
            "package": "perus",
            "lat": 62.324675,
            "lon": 25.837702,
            "address": "Koiralammentie 1, 41310 Laukaa"
        },
        "region-toivakka": {
            "type": "area",
            "name": "Toivakka"
        },
        "company-105": {
            "type": "company",
            "name": "Ext Ventures Oy",
            "category": "Palvelut",
            "package": "perus",
            "lat": 62.415688,
            "lon": 25.952614,
            "address": "Saraharjunkatu 3, 41340 Laukaa"
        },
        "group-muistotilaisuudet-ja-hautajaiset": {
            "type": "group",
            "name": "muistotilaisuudet-ja-hautajaiset"
        },
        "nodelink-JUHLAT": {
            "type": "nodelink",
            "name": "JUHLAT"
        },
        "nodelink-YRITYSTAPAHTUMAT": {
            "type": "nodelink",
            "name": "YRITYSTAPAHTUMAT"
        },
        "nodelink-PÖLKINAHO": {
            "type": "nodelink",
            "name": "PÖLKINAHO"
        },
        "company-106": {
            "type": "company",
            "name": "Hermoratahieronta KIPaway",
            "category": "Hyvinvointi ja terveys",
            "package": "perus",
            "lat": 62.260564,
            "lon": 26.194781,
            "address": "Liepeentie 730, 41400 Laukaa"
        },
        "company-107": {
            "type": "company",
            "name": "Hieroja Veijo Karvonen",
            "category": "Hyvinvointi ja terveys",
            "package": "perus",
            "lat": 62.371876,
            "lon": 25.91056,
            "address": "Saarnikuja 4, 41330 Laukaa"
        },
        "company-108": {
            "type": "company",
            "name": "Hierontahelmi",
            "category": "Hyvinvointi ja terveys",
            "package": "perus",
            "lat": 62.414726,
            "lon": 25.916919,
            "address": "Kankaanpääntie 85, 41350 Laukaa"
        },
        "company-109": {
            "type": "company",
            "name": "Hierontapalvelu Virpi Myyryläinen",
            "category": "Hyvinvointi ja terveys",
            "package": "perus",
            "lat": 62.267823,
            "lon": 26.212446,
            "address": "Laitisentie 7 B 11, 41400 Laukaa"
        },
        "company-110": {
            "type": "company",
            "name": "In Essence",
            "category": "Hyvinvointi ja terveys",
            "package": "perus",
            "lat": 62.33186,
            "lon": 25.843495,
            "address": "Simonpolku 1, 41310 Laukaa"
        },
        "company-111": {
            "type": "company",
            "name": "Keski-Suomen Hieronta- ja lymfaterapiakeskus",
            "category": "Hyvinvointi ja terveys",
            "package": "perus",
            "lat": 62.422693,
            "lon": 25.958098,
            "address": "Veräjätie 7 B 6, 41340 Laukaa"
        },
        "company-112": {
            "type": "company",
            "name": "Koulutettu hieroja Antti-Pekka Ahonen",
            "category": "Hyvinvointi ja terveys",
            "package": "perus",
            "lat": 62.41454,
            "lon": 25.954354,
            "address": "Laukaantie 22, 41340 Laukaa"
        },
        "company-113": {
            "type": "company",
            "name": "Koulutettu hieroja Veera Vihtari",
            "category": "Hyvinvointi ja terveys",
            "package": "perus",
            "lat": 62.450583,
            "lon": 25.957996,
            "address": "Hietalantie 68, 41370 Laukaa"
        },
        "company-114": {
            "type": "company",
            "name": "Luontaishoitola Enkelihuone",
            "category": "Hyvinvointi ja terveys",
            "package": "perus",
            "lat": 62.263334,
            "lon": 26.211195,
            "address": "Katajatie 1, 41400 Laukaa"
        },
        "company-115": {
            "type": "company",
            "name": "Marjo Niininen koulutettu hieroja",
            "category": "Hyvinvointi ja terveys",
            "package": "perus",
            "lat": 62.405791,
            "lon": 25.936804,
            "address": "Koskisentie 2 As 10, 41340 Laukaa"
        },
        "company-116": {
            "type": "company",
            "name": "Ohjelmatoimisto Ja - He Oy",
            "category": "Palvelut",
            "package": "perus",
            "lat": 62.268397,
            "lon": 26.22931,
            "address": "Ketaramäentie 38, 41400 Laukaa"
        },
        "group-tapahtumatuotanto": {
            "type": "group",
            "name": "tapahtumatuotanto"
        },
        "group-äänentoistopalvelut": {
            "type": "group",
            "name": "äänentoistopalvelut"
        },
        "group-ravintolakonsultointi": {
            "type": "group",
            "name": "ravintolakonsultointi"
        },
        "company-117": {
            "type": "company",
            "name": "Perttulan tila Oy",
            "category": "Juhlatilat",
            "package": "perus",
            "lat": 62.323125,
            "lon": 25.87644,
            "address": "Vaajakoskentie 113, 41310 Laukaa"
        },
        "company-118": {
            "type": "company",
            "name": "Peurunka Oy",
            "category": "Majoitus",
            "package": "perus",
            "lat": 62.43412,
            "lon": 25.896808,
            "address": "Peurungantie 85, 41340 Laukaa"
        },
        "group-kuntoutus": {
            "type": "group",
            "name": "kuntoutus"
        },
        "company-119": {
            "type": "company",
            "name": "Pitopalvelu J.Sojakka",
            "category": "Ruokailu",
            "package": "perus",
            "lat": 62.329637,
            "lon": 25.859745,
            "address": "Asemanraitti 12, 41310 Laukaa"
        },
        "company-120": {
            "type": "company",
            "name": "Proxta Oy",
            "category": "Palvelut",
            "package": "perus",
            "lat": 62.3820403,
            "lon": 26.04580181,
            "address": "Koskenrannantie 127, 41325 Laukaa"
        },
        "region-laukkavirta": {
            "type": "area",
            "name": "Laukkavirta"
        },
        "nodelink-LIVE_MUSIIKKI": {
            "type": "nodelink",
            "name": "LIVE_MUSIIKKI"
        },
        "nodelink-AV_TEKNIIKKA": {
            "type": "nodelink",
            "name": "AV_TEKNIIKKA"
        },
        "company-121": {
            "type": "company",
            "name": "Rock Tekniikka Ky",
            "category": "Palvelut",
            "package": "perus",
            "lat": 62.3752482,
            "lon": 25.918405,
            "address": "Brittilänranta 10, 41330 Laukaa"
        },
        "company-122": {
            "type": "company",
            "name": "Tmi Maarit Roth HR-Hieronta",
            "category": "Hyvinvointi ja terveys",
            "package": "perus",
            "lat": 62.458728,
            "lon": 25.667487,
            "address": "Paavolantie 20, 41180 Laukaa"
        },
        "company-123": {
            "type": "company",
            "name": "Tmi Petri Puuhis Lähdemäki",
            "category": "Palvelut",
            "package": "perus",
            "lat": 62.40927,
            "lon": 25.9532367,
            "address": "Laukaantie 2, 41340 Laukaa"
        },
        "company-124": {
            "type": "company",
            "name": "UntenOnnela Ranch avoin yhtiö",
            "category": "Palvelut",
            "package": "perus",
            "lat": 62.528748,
            "lon": 26.065728,
            "address": "Rantakuja 7, 41390 Laukaa"
        },
        "region-äijälä": {
            "type": "area",
            "name": "Äijälä"
        },
        "nodelink-OHJELMAPALVELUT": {
            "type": "nodelink",
            "name": "OHJELMAPALVELUT"
        },
        "company-125": {
            "type": "company",
            "name": "Kauneuspuoti Amelie",
            "category": "Hyvinvointi ja terveys",
            "package": "perus",
            "lat": 62.41454,
            "lon": 25.954354,
            "address": "Laukaantie 22, 41340 Laukaa"
        },
        "company-126": {
            "type": "company",
            "name": "Astellen",
            "category": "Hyvinvointi ja terveys",
            "package": "perus",
            "lat": 62.319522,
            "lon": 25.845535,
            "address": "Välitie 3, 41310 Laukaa"
        },
        "company-127": {
            "type": "company",
            "name": "Evellina's Beauty",
            "category": "Hyvinvointi ja terveys",
            "package": "perus",
            "lat": 62.425049,
            "lon": 25.944893,
            "address": "Muuttolantie 23, 41340 Laukaa"
        },
        "company-128": {
            "type": "company",
            "name": "Eve Nails",
            "category": "Hyvinvointi ja terveys",
            "package": "perus",
            "lat": 62.376994,
            "lon": 25.91108,
            "address": "Mariankuja 6, 41330 Laukaa"
        },
        "company-129": {
            "type": "company",
            "name": "Fieldhill Oy",
            "category": "Kaupat ja ostokset",
            "package": "perus",
            "lat": 62.347114,
            "lon": 25.879991,
            "address": "Pienkuukkalantie 22, 41310 Laukaa"
        },
        "company-130": {
            "type": "company",
            "name": "Parturi-Kampaamo Carpe Diem",
            "category": "Hyvinvointi ja terveys",
            "package": "perus",
            "lat": 62.413718,
            "lon": 25.956601,
            "address": "Laukaantie 15, 41340 Laukaa"
        },
        "company-131": {
            "type": "company",
            "name": "Huonekaluliike Vehviläinen Oy (Kukka ja Hautauspalvelu Vehviläinen)",
            "category": "Palvelut",
            "package": "perus",
            "lat": 62.412,
            "lon": 25.958,
            "address": "laukaantie 10, laukaa"
        },
        "group-huonekalumyynti": {
            "type": "group",
            "name": "huonekalumyynti"
        },
        "group-kukkakauppa": {
            "type": "group",
            "name": "kukkakauppa"
        },
        "group-kodinsisustus": {
            "type": "group",
            "name": "kodinsisustus"
        },
        "group-kuljetuspalvelut": {
            "type": "group",
            "name": "kuljetuspalvelut"
        },
        "region-laukaa-kk": {
            "type": "area",
            "name": "laukaa kk"
        },
        "nodelink-HAUTAUS": {
            "type": "nodelink",
            "name": "HAUTAUS"
        },
        "nodelink-HUONEKALUT": {
            "type": "nodelink",
            "name": "HUONEKALUT"
        },
        "nodelink-KULJETUS": {
            "type": "nodelink",
            "name": "KULJETUS"
        },
        "nodelink-SISUSTUS": {
            "type": "nodelink",
            "name": "SISUSTUS"
        },
        "company-132": {
            "type": "company",
            "name": "Hiushuone Sonja",
            "category": "Hyvinvointi ja terveys",
            "package": "perus",
            "lat": 62.260987,
            "lon": 26.197633,
            "address": "Liepeentie 6, 41400 Laukaa"
        },
        "company-133": {
            "type": "company",
            "name": "Jenora Design",
            "category": "Palvelut",
            "package": "perus",
            "lat": 62.26057,
            "lon": 26.195382,
            "address": "Liepeentie 4, 41400 Laukaa"
        },
        "nodelink-MUOTOKUVAUS": {
            "type": "nodelink",
            "name": "MUOTOKUVAUS"
        },
        "nodelink-HÄÄT": {
            "type": "nodelink",
            "name": "HÄÄT"
        },
        "nodelink-HAUTAJAISET": {
            "type": "nodelink",
            "name": "HAUTAJAISET"
        },
        "nodelink-YRITYSKUVAUS": {
            "type": "nodelink",
            "name": "YRITYSKUVAUS"
        },
        "company-134": {
            "type": "company",
            "name": "Joudukas",
            "category": "Kaupat ja ostokset",
            "package": "perus",
            "lat": 62.393961,
            "lon": 25.70926,
            "address": "Alapohjantie 156a, 41160 Jyväskylä"
        },
        "company-135": {
            "type": "company",
            "name": "Kauneushoitola Ania",
            "category": "Hyvinvointi ja terveys",
            "package": "perus",
            "lat": 62.2604021,
            "lon": 26.1947594,
            "address": "Huminankuja 2, 41400 Laukaa Lievestuore"
        },
        "company-136": {
            "type": "company",
            "name": "Kauneushoitola Tunne",
            "category": "Hyvinvointi ja terveys",
            "package": "perus",
            "lat": 62.413718,
            "lon": 25.956601,
            "address": "Laukaantie 15, 41340 Laukaa"
        },
        "company-137": {
            "type": "company",
            "name": "Kauneuspörssi",
            "category": "Hyvinvointi ja terveys",
            "package": "perus",
            "lat": 62.414123,
            "lon": 25.956217,
            "address": "Laukaantie 18, 41340 Laukaa"
        },
        "company-138": {
            "type": "company",
            "name": "Keski-Suomen Parvekelasitus OY",
            "category": "Rakentaminen ja remontointi",
            "package": "perus",
            "lat": 62.475553,
            "lon": 25.923813,
            "address": "Kotipellontie 2, 41370 Laukaa"
        },
        "company-139": {
            "type": "company",
            "name": "Kimmon kulma",
            "category": "Palvelut",
            "package": "perus",
            "lat": 62.4154613,
            "lon": 25.9570658,
            "address": "Jokiniementie 9, 41340 Laukaa"
        },
        "company-140": {
            "type": "company",
            "name": "Kosmetologi Helena Manninen",
            "category": "Hyvinvointi ja terveys",
            "package": "perus",
            "lat": 62.43412,
            "lon": 25.896808,
            "address": "Peurungantie 85, 41340 Laukaa"
        },
        "company-141": {
            "type": "company",
            "name": "Laukaan Kultakello Avoin yhtiö",
            "category": "Kaupat ja ostokset",
            "package": "perus",
            "lat": 62.413107,
            "lon": 25.951018,
            "address": "Arwidssonintie 15, 41340 Laukaa"
        },
        "company-142": {
            "type": "company",
            "name": "Merjan Risu&Ruusut",
            "category": "Kaupat ja ostokset",
            "package": "perus",
            "lat": 62.412604,
            "lon": 25.945567,
            "address": "Kuukkasentie 1 A 1, 41340 Laukaa"
        },
        "company-143": {
            "type": "company",
            "name": "Miruma",
            "category": "Kaupat ja ostokset",
            "package": "perus",
            "lat": 62.31565,
            "lon": 25.85288,
            "address": "Rinnekuja 17, 41310 Laukaa"
        },
        "company-144": {
            "type": "company",
            "name": "Module Keittiö ja Rakennuspalvelu",
            "category": "Rakentaminen ja remontointi",
            "package": "perus",
            "lat": 62.419809,
            "lon": 25.963226,
            "address": "Kylmäniementie 9, 41340 Laukaa"
        },
        "company-145": {
            "type": "company",
            "name": "Monipalvelu Suomivirta",
            "category": "Rakentaminen ja remontointi",
            "package": "perus",
            "lat": 62.370075,
            "lon": 25.966047,
            "address": "Kuhankoskentie 170, 41340 Laukaa"
        },
        "company-146": {
            "type": "company",
            "name": "Parturi-Kampaamo Anita Kuniala",
            "category": "Hyvinvointi ja terveys",
            "package": "perus",
            "lat": 62.4141233,
            "lon": 25.9562168,
            "address": "Laukaantie 18, 41340 Laukaa"
        },
        "company-147": {
            "type": "company",
            "name": "Parturi-Kampaamo Anne-Maria Arvola",
            "category": "Hyvinvointi ja terveys",
            "package": "perus",
            "lat": 62.26097,
            "lon": 26.195172,
            "address": "Liepeentie 9, 41400 Laukaa"
        },
        "company-148": {
            "type": "company",
            "name": "Parturi-Kampaamo Doris",
            "category": "Hyvinvointi ja terveys",
            "package": "perus",
            "lat": 62.3274594,
            "lon": 25.8346867,
            "address": "Juholanmäki 22, 41310 Laukaa"
        },
        "company-149": {
            "type": "company",
            "name": "Parturi-kampaamo Minna Näreaho",
            "category": "Hyvinvointi ja terveys",
            "package": "perus",
            "lat": 62.32251,
            "lon": 25.839403,
            "address": "Koiralammentie 17, 41310 Laukaa"
        },
        "company-150": {
            "type": "company",
            "name": "Parturi-Kampaamo Paulan Kampa",
            "category": "Hyvinvointi ja terveys",
            "package": "perus",
            "lat": 62.413107,
            "lon": 25.951018,
            "address": "Arwidssonintie 17, 41340 Laukaa"
        },
        "company-151": {
            "type": "company",
            "name": "Parturi-Kampaamo Raija Viinikainen",
            "category": "Hyvinvointi ja terveys",
            "package": "perus",
            "lat": 62.2606397,
            "lon": 26.1942537,
            "address": "Liepeentie 7 , 41400 Laukaa"
        },
        "company-152": {
            "type": "company",
            "name": "Parturi-Kampaamo Sandy",
            "category": "Hyvinvointi ja terveys",
            "package": "perus",
            "lat": 62.367993,
            "lon": 25.901294,
            "address": "Haavistontie 5, 41330 Laukaa"
        },
        "company-153": {
            "type": "company",
            "name": "Parturi-Kampaamo Tuula Häkkinen",
            "category": "Hyvinvointi ja terveys",
            "package": "perus",
            "lat": 62.424926,
            "lon": 25.945354,
            "address": "Jokiniityntie 7, 41340 Laukaa"
        },
        "company-154": {
            "type": "company",
            "name": "Photo Malmström",
            "category": "Palvelut",
            "package": "perus",
            "lat": 62.428669,
            "lon": 25.943171,
            "address": "Mustikkarinne 15, 41340 Laukaa"
        },
        "nodelink-JYVASKYLA": {
            "type": "nodelink",
            "name": "JYVASKYLA"
        },
        "nodelink-TAPAHTUMAKUVAUS": {
            "type": "nodelink",
            "name": "TAPAHTUMAKUVAUS"
        },
        "nodelink-HAAKUVAUS": {
            "type": "nodelink",
            "name": "HAAKUVAUS"
        },
        "company-155": {
            "type": "company",
            "name": "Pieneläintuhkaamo Usva OY",
            "category": "Palvelut",
            "package": "perus",
            "lat": 62.257776,
            "lon": 26.237898,
            "address": "Puhakantie 3, 41400 Laukaa"
        },
        "company-156": {
            "type": "company",
            "name": "Pieni Helmi",
            "category": "Hyvinvointi ja terveys",
            "package": "perus",
            "lat": 62.37,
            "lon": 25.91,
            "address": "Brittilänranta 12, 41330 Laukaa"
        },
        "nodelink-KIERRÄTYS": {
            "type": "nodelink",
            "name": "KIERRÄTYS"
        },
        "nodelink-LASTENTARVIKKEET": {
            "type": "nodelink",
            "name": "LASTENTARVIKKEET"
        },
        "company-157": {
            "type": "company",
            "name": "Rakentajainpalvelu Järvinen",
            "category": "Rakentaminen ja remontointi",
            "package": "perus",
            "lat": 62.325413,
            "lon": 25.844891,
            "address": "Varsatie 8, 41310 Laukaa"
        },
        "company-158": {
            "type": "company",
            "name": "Kynsiteknikko Kristi Ruul-Saari​",
            "category": "Hyvinvointi ja terveys",
            "package": "perus",
            "lat": 62.428391,
            "lon": 25.93729,
            "address": "Kuusisentie 53, 41340 Laukaa"
        },
        "company-159": {
            "type": "company",
            "name": "Hiushuone Soma",
            "category": "Hyvinvointi ja terveys",
            "package": "perus",
            "lat": 62.415125,
            "lon": 25.951927,
            "address": "Laukaantie 26, 41340 Laukaa"
        },
        "company-160": {
            "type": "company",
            "name": "Spirello",
            "category": "Hyvinvointi ja terveys",
            "package": "perus",
            "lat": 62.412701,
            "lon": 25.958147,
            "address": "Laukaantie 5 A 2, 41340 Laukaa"
        },
        "company-161": {
            "type": "company",
            "name": "Sähköpalvelu M Leminen Ky",
            "category": "Rakentaminen ja remontointi",
            "package": "perus",
            "lat": 62.252478,
            "lon": 26.214823,
            "address": "Kuhnontie 18, 41400 Laukaa"
        },
        "company-162": {
            "type": "company",
            "name": "T.mi Jaana Jämbäck",
            "category": "Hyvinvointi ja terveys",
            "package": "perus",
            "lat": 62.372755,
            "lon": 25.901839,
            "address": "Hiihtomäentie 3, 41330 Laukaa"
        },
        "company-163": {
            "type": "company",
            "name": "Tia's hair and beauty",
            "category": "Hyvinvointi ja terveys",
            "package": "perus",
            "lat": 62.491349,
            "lon": 26.06791,
            "address": "Nurmijärventie 222, 41390 Laukaa"
        },
        "company-164": {
            "type": "company",
            "name": "Tmi Anni Nurminen",
            "category": "Hyvinvointi ja terveys",
            "package": "perus",
            "lat": 62.415125,
            "lon": 25.951927,
            "address": "Laukaantie 26, 41340 Laukaa"
        },
        "company-165": {
            "type": "company",
            "name": "Tmi Helppasi",
            "category": "Hyvinvointi ja terveys",
            "package": "perus",
            "lat": 62.407869,
            "lon": 25.925338,
            "address": "Miettisentie 1, Laukaa"
        },
        "company-166": {
            "type": "company",
            "name": "Tmi Jussi Pöysä",
            "category": "Kaupat ja ostokset",
            "package": "perus",
            "lat": 62.378732,
            "lon": 25.904618,
            "address": "Ravitie 3, 41330 Laukaa"
        },
        "company-167": {
            "type": "company",
            "name": "Tmi Katja Vehviläinen (Parturi-kampaamo",
            "category": "Hyvinvointi ja terveys",
            "package": "perus",
            "lat": 62.41454,
            "lon": 25.954354,
            "address": "Laukaantie 22-24, 41340 Laukaa"
        },
        "company-168": {
            "type": "company",
            "name": "Tmi Kia Janhonen",
            "category": "Hyvinvointi ja terveys",
            "package": "perus",
            "lat": 62.260987,
            "lon": 26.197633,
            "address": "Liepeentie 6, 41400 Laukaa"
        },
        "company-169": {
            "type": "company",
            "name": "Tmi Mari Virtanen",
            "category": "Hyvinvointi ja terveys",
            "package": "perus",
            "lat": 62.415125,
            "lon": 25.951927,
            "address": "Laukaantie 26, 41340 Laukaa"
        },
        "company-170": {
            "type": "company",
            "name": "Tmi Saana Oksanen",
            "category": "Hyvinvointi ja terveys",
            "package": "perus",
            "lat": 62.409956,
            "lon": 25.950166,
            "address": "Kantolantie 10, 41340 Laukaa"
        },
        "company-171": {
            "type": "company",
            "name": "Tmi Saija Kärki",
            "category": "Hyvinvointi ja terveys",
            "package": "perus",
            "lat": 62.2605696,
            "lon": 26.1953816,
            "address": "Liepeentie 4 , 41400 Laukaa"
        },
        "company-172": {
            "type": "company",
            "name": "Tmi SaraBella/Salon Belleza Gloriosa Sara Aho",
            "category": "Hyvinvointi ja terveys",
            "package": "perus",
            "lat": 62.327598,
            "lon": 25.841691,
            "address": "Tiituspohjantie 50, 41310 Laukaa"
        },
        "company-173": {
            "type": "company",
            "name": "Tmi Seija Puttonen",
            "category": "Hyvinvointi ja terveys",
            "package": "perus",
            "lat": 62.43412,
            "lon": 25.896808,
            "address": "Peurungantie 85, 41340 Laukaa"
        },
        "company-174": {
            "type": "company",
            "name": "Topiron Ky",
            "category": "Palvelut",
            "package": "perus",
            "lat": 62.44188,
            "lon": 25.837138,
            "address": "Valkolantie 257, 41360 Laukaa"
        },
        "company-175": {
            "type": "company",
            "name": "Veisto- ja Kalustetyö M. Ojala",
            "category": "Rakentaminen ja remontointi",
            "package": "perus",
            "lat": 62.45173,
            "lon": 25.689625,
            "address": "Kuparintie 27, 41180 Laukaa"
        },
        "company-176": {
            "type": "company",
            "name": "Väentupa R.Y. (Kirpputori Retrokeidas)",
            "category": "Kaupat ja ostokset",
            "package": "perus",
            "lat": 62.413513,
            "lon": 25.957332,
            "address": "Laukaantie 13, 41340 Laukaa"
        },
        "company-177": {
            "type": "company",
            "name": "Adven Oy",
            "category": "Palvelut",
            "package": "perus",
            "lat": 62.3722517,
            "lon": 25.8742655,
            "address": "Ruutitehtaantie 80, 41340 Laukaa"
        },
        "company-178": {
            "type": "company",
            "name": "Almek",
            "category": "Palvelut",
            "package": "perus",
            "lat": 62.257513,
            "lon": 26.185728,
            "address": "Liepeentie 7 B 15, 41400 Laukaa"
        },
        "company-179": {
            "type": "company",
            "name": "Apponen Pekka Juhani",
            "category": "Rakentaminen ja remontointi",
            "package": "perus",
            "lat": 62.44866,
            "lon": 25.669377,
            "address": "Yläpohjantie 79, 41180 Laukaa"
        },
        "company-180": {
            "type": "company",
            "name": "Arkkitiimi Osuuskunta",
            "category": "Palvelut",
            "package": "perus",
            "lat": 62.421138,
            "lon": 25.914844,
            "address": "Rokkakankaantie 8, 41350 Laukaa"
        },
        "company-181": {
            "type": "company",
            "name": "Atte Isokangas Tmi",
            "category": "Rakentaminen ja remontointi",
            "package": "perus",
            "lat": 62.319598,
            "lon": 25.835525,
            "address": "Sudenjälki 2 b, 41310 Laukaa"
        },
        "company-182": {
            "type": "company",
            "name": "Colliers Finland Oy",
            "category": "Palvelut",
            "package": "perus",
            "lat": 62.412701,
            "lon": 25.958147,
            "address": "Laukaantie, 41340 Laukaa"
        },
        "company-183": {
            "type": "company",
            "name": "Duuni-Simppa Ky",
            "category": "Rakentaminen ja remontointi",
            "package": "perus",
            "lat": 62.373157,
            "lon": 26.067081,
            "address": "Rantakyläntie 44, 41325 Laukaa"
        },
        "company-184": {
            "type": "company",
            "name": "EXS Finland Oy",
            "category": "Rakentaminen ja remontointi",
            "package": "perus",
            "lat": 62.33232,
            "lon": 25.858084,
            "address": "Åströmintie 7, 41310 Laukaa"
        },
        "company-185": {
            "type": "company",
            "name": "Hento Works",
            "category": "Rakentaminen ja remontointi",
            "package": "perus",
            "lat": 62.34499,
            "lon": 25.877226,
            "address": "Ala-Kuukkalantie 37, 41310 Laukaa"
        },
        "company-186": {
            "type": "company",
            "name": "Ilmalämpöpumput Tmi Forsström",
            "category": "Rakentaminen ja remontointi",
            "package": "perus",
            "lat": 62.401416,
            "lon": 25.954356,
            "address": "Ristonniementie 16, 41340 Laukaa"
        },
        "company-187": {
            "type": "company",
            "name": "IR-Kiinteistöt Irja Hokkeri",
            "category": "Palvelut",
            "package": "perus",
            "lat": 62.263985,
            "lon": 26.212058,
            "address": "Männiköntie 2 C 14, 41400 Laukaa"
        },
        "group-kiinteiston-valitys": {
            "type": "group",
            "name": "kiinteiston-valitys"
        },
        "group-asuntojen-myynti": {
            "type": "group",
            "name": "asuntojen-myynti"
        },
        "group-asuntojen-vuokraus": {
            "type": "group",
            "name": "asuntojen-vuokraus"
        },
        "group-kiinteistokonsultointi": {
            "type": "group",
            "name": "kiinteistokonsultointi"
        },
        "nodelink-KIINTEISTOT": {
            "type": "nodelink",
            "name": "KIINTEISTOT"
        },
        "nodelink-ASUMINEN": {
            "type": "nodelink",
            "name": "ASUMINEN"
        },
        "company-188": {
            "type": "company",
            "name": "Isännöinti Asuville Oy",
            "category": "Palvelut",
            "package": "perus",
            "lat": 62.412412,
            "lon": 25.958548,
            "address": "Laukaantie 12, 41340 Laukaa"
        },
        "nodelink-ISÄNNÖINTI": {
            "type": "nodelink",
            "name": "ISÄNNÖINTI"
        },
        "company-189": {
            "type": "company",
            "name": "Isännöintitoimisto Sujuvaa Oy",
            "category": "Palvelut",
            "package": "perus",
            "lat": 62.415688,
            "lon": 25.952614,
            "address": "Saraharjunkatu 3, 41340 Laukaa"
        },
        "group-isännöinti": {
            "type": "group",
            "name": "isännöinti"
        },
        "group-kiinteistöhallinto": {
            "type": "group",
            "name": "kiinteistöhallinto"
        },
        "group-taloushallinto": {
            "type": "group",
            "name": "taloushallinto"
        },
        "group-asumisen-palvelut": {
            "type": "group",
            "name": "asumisen-palvelut"
        },
        "region-konnevesi": {
            "type": "area",
            "name": "Konnevesi"
        },
        "region-äänekoski": {
            "type": "area",
            "name": "Äänekoski"
        },
        "company-190": {
            "type": "company",
            "name": "Isännöitsijätoimisto Heikki Valkonen Ky",
            "category": "Palvelut",
            "package": "perus",
            "lat": 62.30287,
            "lon": 25.85943,
            "address": "Vihtiäläntie 159, 41310 Laukaa"
        },
        "region-muurame": {
            "type": "area",
            "name": "Muurame"
        },
        "company-191": {
            "type": "company",
            "name": "IV-urakointi Lehtonen Oy",
            "category": "Rakentaminen ja remontointi",
            "package": "perus",
            "lat": 62.42793,
            "lon": 25.924672,
            "address": "Rokkasuontie 52, 41350 Laukaa"
        },
        "company-192": {
            "type": "company",
            "name": "Kiinteistöjen korjaus ja huolto Lehtiö Jarmo",
            "category": "Rakentaminen ja remontointi",
            "package": "perus",
            "lat": 62.355152,
            "lon": 25.960288,
            "address": "Lehesvuorentie 193, 41340 Laukaa"
        },
        "company-193": {
            "type": "company",
            "name": "JL-Maanrakennus Oy",
            "category": "Palvelut",
            "package": "perus",
            "lat": 62.325685,
            "lon": 25.844533,
            "address": "Varsatie 6, 41310 Laukaa"
        },
        "company-194": {
            "type": "company",
            "name": "Jyvä-IV Oy",
            "category": "Rakentaminen ja remontointi",
            "package": "perus",
            "lat": 62.417922,
            "lon": 25.962179,
            "address": "Kylmäniementie 6 A 1, 41340 Laukaa"
        },
        "company-195": {
            "type": "company",
            "name": "Jyväsesudun LVI Oy",
            "category": "Rakentaminen ja remontointi",
            "package": "perus",
            "lat": 62.400507,
            "lon": 26.043664,
            "address": "Pitkärannantie 74, 41325 Laukaa"
        },
        "group-housing-company-palvelut": {
            "type": "group",
            "name": "housing-company-palvelut"
        },
        "group-lvi-palvelut": {
            "type": "group",
            "name": "lvi-palvelut"
        },
        "nodelink-LVI": {
            "type": "nodelink",
            "name": "LVI"
        },
        "nodelink-RAKENTAMINEN": {
            "type": "nodelink",
            "name": "RAKENTAMINEN"
        },
        "nodelink-JYVÄSKYLÄ": {
            "type": "nodelink",
            "name": "JYVÄSKYLÄ"
        },
        "company-196": {
            "type": "company",
            "name": "Kaken turva Oy",
            "category": "Palvelut",
            "package": "perus",
            "lat": 62.401894,
            "lon": 25.931768,
            "address": "Katajamäentie 4, 41340 Laukaa"
        },
        "company-197": {
            "type": "company",
            "name": "Kiinteistönvälitys HuippuMesta LKV",
            "category": "Palvelut",
            "package": "perus",
            "lat": 62.413063,
            "lon": 25.947868,
            "address": "Vuokaari 2, 41340 Laukaa"
        },
        "company-198": {
            "type": "company",
            "name": "Kiinteistöpalvelu Farox Oy",
            "category": "Palvelut",
            "package": "perus",
            "lat": 62.257304,
            "lon": 26.238867,
            "address": "Puhakantie 146, 41400 Laukaa"
        },
        "company-199": {
            "type": "company",
            "name": "Kiinteistöpalvelu Petäjämäki ky",
            "category": "Palvelut",
            "package": "perus",
            "lat": 62.472982,
            "lon": 25.810511,
            "address": "Vatiantie 96, 41360 Laukaa"
        },
        "company-200": {
            "type": "company",
            "name": "Koskienergia Oy",
            "category": "Palvelut",
            "package": "perus",
            "lat": 62.370075,
            "lon": 25.966047,
            "address": "Kuhankoskentie, 41340 Laukaa"
        },
        "company-201": {
            "type": "company",
            "name": "Laatutyö Helama Oy",
            "category": "Rakentaminen ja remontointi",
            "package": "perus",
            "lat": 62.383272,
            "lon": 25.924167,
            "address": "Salmensillantie 40, 41340 Laukaa"
        },
        "company-202": {
            "type": "company",
            "name": "Laukaan Aave Oy",
            "category": "Rakentaminen ja remontointi",
            "package": "perus",
            "lat": 62.423546,
            "lon": 25.906181,
            "address": "Riekontie 1, 41350 Laukaa"
        },
        "company-203": {
            "type": "company",
            "name": "Laukaan Arkiapupalvelut",
            "category": "Rakentaminen ja remontointi",
            "package": "perus",
            "lat": 62.464029,
            "lon": 25.917047,
            "address": "Vilppulantie 175, 41370 Laukaa"
        },
        "company-204": {
            "type": "company",
            "name": "Laukaan Kotipalvelu",
            "category": "Hyvinvointi ja terveys",
            "package": "perus",
            "lat": 62.465955,
            "lon": 25.915508,
            "address": "Vilppulantie 196, 41370 Laukaa"
        },
        "company-205": {
            "type": "company",
            "name": "Laukaan Pitkäniemen kiinteistöhuolto Oy",
            "category": "Palvelut",
            "package": "perus",
            "lat": 62.515463,
            "lon": 26.069675,
            "address": "Särkeläntie 158, 41390 Laukaa"
        },
        "company-206": {
            "type": "company",
            "name": "Laukaan Puhtaanapito Oy",
            "category": "Palvelut",
            "package": "perus",
            "lat": 62.424012,
            "lon": 25.91718,
            "address": "Rokkamäentie 1 C, 41350 Laukaa"
        },
        "intent-CONSTRUCTION_AND_MAINTENANCE": {
            "type": "intent",
            "name": "CONSTRUCTION_AND_MAINTENANCE"
        },
        "company-207": {
            "type": "company",
            "name": "Laukaan Renki-Palvelut",
            "category": "Rakentaminen ja remontointi",
            "package": "perus",
            "lat": 62.463656,
            "lon": 25.957987,
            "address": "Vähäharjuntie 8, 41370 Laukaa"
        },
        "group-mökkipalvelut": {
            "type": "group",
            "name": "mökkipalvelut"
        },
        "nodelink-COTTAGE_SERVICES": {
            "type": "nodelink",
            "name": "COTTAGE_SERVICES"
        },
        "company-208": {
            "type": "company",
            "name": "Laukaan Talopalvelu Oy",
            "category": "Palvelut",
            "package": "perus",
            "lat": 62.412412,
            "lon": 25.958548,
            "address": "Laukaantie 12, 41340 Laukaa"
        },
        "group-kiinteistönhuolto": {
            "type": "group",
            "name": "kiinteistönhuolto"
        },
        "group-talonmiespalvelut": {
            "type": "group",
            "name": "talonmiespalvelut"
        },
        "group-rakennusten-ylläpito": {
            "type": "group",
            "name": "rakennusten-ylläpito"
        },
        "company-209": {
            "type": "company",
            "name": "Lehtomäen traktoripalvelu",
            "category": "Palvelut",
            "package": "perus",
            "lat": 62.54929,
            "lon": 26.062026,
            "address": "Äijäläntie 1422, 41390 Laukaa"
        },
        "company-210": {
            "type": "company",
            "name": "Lievestuoreen Lämpö Oy",
            "category": "Palvelut",
            "package": "perus",
            "lat": 62.260367,
            "lon": 26.181292,
            "address": "41400 Laukaa"
        },
        "company-211": {
            "type": "company",
            "name": "LVI-Hanaman",
            "category": "Rakentaminen ja remontointi",
            "package": "perus",
            "lat": 62.377361,
            "lon": 25.921006,
            "address": "Kuusiranta 16, 41330 Laukaa"
        },
        "company-212": {
            "type": "company",
            "name": "LVI Jukka Pirttinen Oy",
            "category": "Rakentaminen ja remontointi",
            "package": "perus",
            "lat": 62.415457,
            "lon": 25.954032,
            "address": "Saraharjunkatu 8, 41340 Laukaa"
        },
        "company-213": {
            "type": "company",
            "name": "LVI-Sekuri Oy",
            "category": "Rakentaminen ja remontointi",
            "package": "perus",
            "lat": 62.340927,
            "lon": 25.90611,
            "address": "Järvilinnantie 135, 41330 Laukaa"
        },
        "company-214": {
            "type": "company",
            "name": "LVI-Taitajat Oy",
            "category": "Rakentaminen ja remontointi",
            "package": "perus",
            "lat": 62.467151,
            "lon": 25.812225,
            "address": "Valkolantie 622, 41360 Laukaa"
        },
        "company-215": {
            "type": "company",
            "name": "LVI-Vestec Oy",
            "category": "Rakentaminen ja remontointi",
            "package": "perus",
            "lat": 62.332672,
            "lon": 25.841938,
            "address": "Eerolantie 6, 41310 Laukaa"
        },
        "company-216": {
            "type": "company",
            "name": "Mittakupari Oy",
            "category": "Rakentaminen ja remontointi",
            "package": "perus",
            "lat": 62.408185,
            "lon": 25.941023,
            "address": "Petterintie 9, 41340 Laukaa"
        },
        "company-217": {
            "type": "company",
            "name": "Monitac",
            "category": "Palvelut",
            "package": "perus",
            "lat": 62.242998,
            "lon": 26.095529,
            "address": "Metsolahdentie 118, 41400 Laukaa"
        },
        "company-218": {
            "type": "company",
            "name": "Osk. JS Keski-Suomi",
            "category": "Rakentaminen ja remontointi",
            "package": "perus",
            "lat": 62.333069,
            "lon": 25.846753,
            "address": "Matinpolku 2 G, 41310 Laukaa"
        },
        "company-219": {
            "type": "company",
            "name": "Pikkupiika Kaarina",
            "category": "Rakentaminen ja remontointi",
            "package": "perus",
            "lat": 62.347505,
            "lon": 25.926206,
            "address": "Järvilinnantie 18, 41330 Laukaa"
        },
        "company-220": {
            "type": "company",
            "name": "Pinta-Putki Oy",
            "category": "Rakentaminen ja remontointi",
            "package": "perus",
            "lat": 62.337222,
            "lon": 25.849284,
            "address": "Korpelantie 40, 41310 Laukaa"
        },
        "company-221": {
            "type": "company",
            "name": "Putki Pee Oy",
            "category": "Rakentaminen ja remontointi",
            "package": "perus",
            "lat": 62.324171,
            "lon": 25.886107,
            "address": "Halkolaanintie 78, 41310 Laukaa"
        },
        "company-222": {
            "type": "company",
            "name": "Suur-Savon Sähkö Oy",
            "category": "Palvelut",
            "package": "perus",
            "lat": 62.260241,
            "lon": 26.208878,
            "address": "Simontie 4, 41400 Laukaa"
        },
        "company-223": {
            "type": "company",
            "name": "Sydän-Suomen Kuljetus Oy",
            "category": "Palvelut",
            "package": "perus",
            "lat": 62.273933,
            "lon": 26.22153,
            "address": "Ketarakuja 5, 41400 Laukaa"
        },
        "company-224": {
            "type": "company",
            "name": "T:mi Harri Lekander",
            "category": "Rakentaminen ja remontointi",
            "package": "perus",
            "lat": 62.272329,
            "lon": 26.218714,
            "address": "Mullostie 6, 41400 Laukaa"
        },
        "company-225": {
            "type": "company",
            "name": "t:mi Ilkka Kanerva",
            "category": "Rakentaminen ja remontointi",
            "package": "perus",
            "lat": 62.421919,
            "lon": 25.908425,
            "address": "Haukantie 3, 41350 Laukaa"
        },
        "company-226": {
            "type": "company",
            "name": "T:mi Jukka-Pekka Olkkonen",
            "category": "Rakentaminen ja remontointi",
            "package": "perus",
            "lat": 62.370075,
            "lon": 25.966047,
            "address": "Kuhankoskentie 368, 41340 Laukaa"
        },
        "company-227": {
            "type": "company",
            "name": "T:mi Maria Fägerholt",
            "category": "Rakentaminen ja remontointi",
            "package": "perus",
            "lat": 62.334051,
            "lon": 25.846274,
            "address": "Hiekkapohjantie 22, 41310 Laukaa"
        },
        "company-229": {
            "type": "company",
            "name": "T:mi Porrastyö",
            "category": "Rakentaminen ja remontointi",
            "package": "perus",
            "lat": 62.38135331,
            "lon": 26.03805815,
            "address": "Kuoppamäentie 100, 41325 Laukkavirta"
        },